[
    {
        "city": "Kabul", 
        "admin": "Kabul", 
        "country": "Afghanistan", 
        "population_proper": "3043532", 
        "iso2": "AF", 
        "capital": "primary", 
        "lat": "34.516667", 
        "lng": "69.183333", 
        "population": "3277000"
    }, 
    {
        "city": "Kandahar", 
        "admin": "Kandahar", 
        "country": "Afghanistan", 
        "population_proper": "512200", 
        "iso2": "AF", 
        "capital": "admin", 
        "lat": "31.613323", 
        "lng": "65.710126", 
        "population": "715542"
    }, 
    {
        "city": "Jalalabad", 
        "admin": "Nangarhar", 
        "country": "Afghanistan", 
        "population_proper": "205423", 
        "iso2": "AF", 
        "capital": "admin", 
        "lat": "34.426468", 
        "lng": "70.45153", 
        "population": "597971"
    }, 
    {
        "city": "Herat", 
        "admin": "Herat", 
        "country": "Afghanistan", 
        "population_proper": "397456", 
        "iso2": "AF", 
        "capital": "admin", 
        "lat": "34.348167", 
        "lng": "62.199673", 
        "population": "481009"
    }, 
    {
        "city": "Mazar-e Shar\u012bf", 
        "admin": "Balkh", 
        "country": "Afghanistan", 
        "population_proper": "272714", 
        "iso2": "AF", 
        "capital": "admin", 
        "lat": "36.709041", 
        "lng": "67.110866", 
        "population": "458151"
    }, 
    {
        "city": "Kunduz", 
        "admin": "Kunduz", 
        "country": "Afghanistan", 
        "population_proper": "161902", 
        "iso2": "AF", 
        "capital": "admin", 
        "lat": "36.728955", 
        "lng": "68.857001", 
        "population": "259809"
    }, 
    {
        "city": "\u1e6eaghar", 
        "admin": "Baghlan", 
        "country": "Afghanistan", 
        "population_proper": "108449", 
        "iso2": "AF", 
        "capital": "", 
        "lat": "36.152481", 
        "lng": "68.737086", 
        "population": "218748"
    }, 
    {
        "city": "Lashkar Gah", 
        "admin": "Helmand", 
        "country": "Afghanistan", 
        "population_proper": "201546", 
        "iso2": "AF", 
        "capital": "admin", 
        "lat": "31.593817", 
        "lng": "64.371614", 
        "population": "201546"
    }, 
    {
        "city": "Ma\u012bmanah", 
        "admin": "Faryab", 
        "country": "Afghanistan", 
        "population_proper": "199795", 
        "iso2": "AF", 
        "capital": "admin", 
        "lat": "35.921337", 
        "lng": "64.784058", 
        "population": "199795"
    }, 
    {
        "city": "Balkh", 
        "admin": "Balkh", 
        "country": "Afghanistan", 
        "population_proper": "114883", 
        "iso2": "AF", 
        "capital": "minor", 
        "lat": "36.756352", 
        "lng": "66.897196", 
        "population": "179969"
    }, 
    {
        "city": "Ghazn\u012b", 
        "admin": "Ghazn\u012b", 
        "country": "Afghanistan", 
        "population_proper": "118785", 
        "iso2": "AF", 
        "capital": "admin", 
        "lat": "33.550833", 
        "lng": "68.4225", 
        "population": "141000"
    }, 
    {
        "city": "Gard\u0113z", 
        "admin": "Paktiya", 
        "country": "Afghanistan", 
        "population_proper": "61760", 
        "iso2": "AF", 
        "capital": "admin", 
        "lat": "33.597439", 
        "lng": "69.225922", 
        "population": "103601"
    }, 
    {
        "city": "Shibirghan", 
        "admin": "Jowzjan", 
        "country": "Afghanistan", 
        "population_proper": "55641", 
        "iso2": "AF", 
        "capital": "admin", 
        "lat": "36.667567", 
        "lng": "65.752904", 
        "population": "93241"
    }, 
    {
        "city": "Farah", 
        "admin": "Farah", 
        "country": "Afghanistan", 
        "population_proper": "43561", 
        "iso2": "AF", 
        "capital": "admin", 
        "lat": "32.374508", 
        "lng": "62.116383", 
        "population": "73647"
    }, 
    {
        "city": "Andkh\u014dy", 
        "admin": "Faryab", 
        "country": "Afghanistan", 
        "population_proper": "29208", 
        "iso2": "AF", 
        "capital": "minor", 
        "lat": "36.952926", 
        "lng": "65.123761", 
        "population": "71730"
    }, 
    {
        "city": "Fa\u012b\u1e95abad", 
        "admin": "Badakhshan", 
        "country": "Afghanistan", 
        "population_proper": "40276", 
        "iso2": "AF", 
        "capital": "admin", 
        "lat": "37.116638", 
        "lng": "70.580022", 
        "population": "64704"
    }, 
    {
        "city": "Taluqan", 
        "admin": "Takhar", 
        "country": "Afghanistan", 
        "population_proper": "64256", 
        "iso2": "AF", 
        "capital": "admin", 
        "lat": "36.734133", 
        "lng": "69.533559", 
        "population": "64256"
    }, 
    {
        "city": "Pul-e Khumr\u012b", 
        "admin": "Baghlan", 
        "country": "Afghanistan", 
        "population_proper": "25689", 
        "iso2": "AF", 
        "capital": "admin", 
        "lat": "35.944583", 
        "lng": "68.715122", 
        "population": "56369"
    }, 
    {
        "city": "Char\u012bkar", 
        "admin": "Parwan", 
        "country": "Afghanistan", 
        "population_proper": "53676", 
        "iso2": "AF", 
        "capital": "admin", 
        "lat": "35.016585", 
        "lng": "69.174011", 
        "population": "53676"
    }, 
    {
        "city": "Asadabad", 
        "admin": "Kuna\u1e5f", 
        "country": "Afghanistan", 
        "population_proper": "48400", 
        "iso2": "AF", 
        "capital": "admin", 
        "lat": "34.873113", 
        "lng": "71.14697", 
        "population": "48400"
    }, 
    {
        "city": "A\u012bbak", 
        "admin": "Samangan", 
        "country": "Afghanistan", 
        "population_proper": "24000", 
        "iso2": "AF", 
        "capital": "admin", 
        "lat": "36.26468", 
        "lng": "68.015512", 
        "population": "24000"
    }, 
    {
        "city": "Barak\u012b Barak", 
        "admin": "L\u014dgar", 
        "country": "Afghanistan", 
        "population_proper": "22305", 
        "iso2": "AF", 
        "capital": "minor", 
        "lat": "33.967443", 
        "lng": "68.949199", 
        "population": "22305"
    }, 
    {
        "city": "Karukh", 
        "admin": "Herat", 
        "country": "Afghanistan", 
        "population_proper": "11293", 
        "iso2": "AF", 
        "capital": "minor", 
        "lat": "34.481083", 
        "lng": "62.5863", 
        "population": "17484"
    }, 
    {
        "city": "Mehtar Lam", 
        "admin": "Laghman", 
        "country": "Afghanistan", 
        "population_proper": "17345", 
        "iso2": "AF", 
        "capital": "admin", 
        "lat": "34.671389", 
        "lng": "70.209444", 
        "population": "17345"
    }, 
    {
        "city": "Zargh\u016bn Shahr", 
        "admin": "Pakt\u012bka", 
        "country": "Afghanistan", 
        "population_proper": "13737", 
        "iso2": "AF", 
        "capital": "", 
        "lat": "32.847343", 
        "lng": "68.445732", 
        "population": "13737"
    }, 
    {
        "city": "Qalat", 
        "admin": "Zabul", 
        "country": "Afghanistan", 
        "population_proper": "12191", 
        "iso2": "AF", 
        "capital": "admin", 
        "lat": "32.10575", 
        "lng": "66.908332", 
        "population": "12191"
    }, 
    {
        "city": "Tar\u012bn K\u014d\u1e6f", 
        "admin": "Uruzgan", 
        "country": "Afghanistan", 
        "population_proper": "10000", 
        "iso2": "AF", 
        "capital": "admin", 
        "lat": "32.62675", 
        "lng": "65.873313", 
        "population": "10000"
    }, 
    {
        "city": "Ma\u1e29m\u016bd-e Raq\u012b", 
        "admin": "Kap\u012bsa", 
        "country": "Afghanistan", 
        "population_proper": "7407", 
        "iso2": "AF", 
        "capital": "admin", 
        "lat": "35.016406", 
        "lng": "69.344504", 
        "population": "7407"
    }, 
    {
        "city": "Qal\u2018ah-ye Now", 
        "admin": "Badgh\u012bs", 
        "country": "Afghanistan", 
        "population_proper": "2997", 
        "iso2": "AF", 
        "capital": "admin", 
        "lat": "34.987351", 
        "lng": "63.128911", 
        "population": "2997"
    }, 
    {
        "city": "Dowlat Shah", 
        "admin": "Laghman", 
        "country": "Afghanistan", 
        "population_proper": "", 
        "iso2": "AF", 
        "capital": "minor", 
        "lat": "34.950397", 
        "lng": "70.071017", 
        "population": ""
    }, 
    {
        "city": "Dowlatyar", 
        "admin": "Gh\u014dr", 
        "country": "Afghanistan", 
        "population_proper": "", 
        "iso2": "AF", 
        "capital": "minor", 
        "lat": "34.551319", 
        "lng": "65.793022", 
        "population": ""
    }, 
    {
        "city": "Karb\u014d\u1e5f\u012b", 
        "admin": "Kuna\u1e5f", 
        "country": "Afghanistan", 
        "population_proper": "", 
        "iso2": "AF", 
        "capital": "minor", 
        "lat": "34.965974", 
        "lng": "71.274601", 
        "population": ""
    }, 
    {
        "city": "\u1e28afiz\u0327an", 
        "admin": "Nangarhar", 
        "country": "Afghanistan", 
        "population_proper": "", 
        "iso2": "AF", 
        "capital": "minor", 
        "lat": "34.286652", 
        "lng": "70.372467", 
        "population": ""
    }, 
    {
        "city": "M\u012br Bachah K\u014d\u1e6f", 
        "admin": "Kabul", 
        "country": "Afghanistan", 
        "population_proper": "", 
        "iso2": "AF", 
        "capital": "minor", 
        "lat": "34.749991", 
        "lng": "69.118987", 
        "population": ""
    }, 
    {
        "city": "N\u012bl\u012b", 
        "admin": "Daykund\u012b", 
        "country": "Afghanistan", 
        "population_proper": "", 
        "iso2": "AF", 
        "capital": "admin", 
        "lat": "33.721777", 
        "lng": "66.130229", 
        "population": ""
    }, 
    {
        "city": "Kalan Deh", 
        "admin": "Wardak", 
        "country": "Afghanistan", 
        "population_proper": "", 
        "iso2": "AF", 
        "capital": "minor", 
        "lat": "33.836765", 
        "lng": "68.402328", 
        "population": ""
    }, 
    {
        "city": "Ka\u2019\u012b", 
        "admin": "Nangarhar", 
        "country": "Afghanistan", 
        "population_proper": "", 
        "iso2": "AF", 
        "capital": "minor", 
        "lat": "34.128189", 
        "lng": "70.718277", 
        "population": ""
    }, 
    {
        "city": "\u0100smar", 
        "admin": "Kuna\u1e5f", 
        "country": "Afghanistan", 
        "population_proper": "", 
        "iso2": "AF", 
        "capital": "minor", 
        "lat": "35.033328", 
        "lng": "71.358087", 
        "population": ""
    }, 
    {
        "city": "D\u016b Qal\u2018ah", 
        "admin": "Farah", 
        "country": "Afghanistan", 
        "population_proper": "", 
        "iso2": "AF", 
        "capital": "minor", 
        "lat": "32.142372", 
        "lng": "61.446899", 
        "population": ""
    }, 
    {
        "city": "Chimtal", 
        "admin": "Balkh", 
        "country": "Afghanistan", 
        "population_proper": "", 
        "iso2": "AF", 
        "capital": "minor", 
        "lat": "36.678179", 
        "lng": "66.803254", 
        "population": ""
    }, 
    {
        "city": "Bazarak", 
        "admin": "Panjshir", 
        "country": "Afghanistan", 
        "population_proper": "", 
        "iso2": "AF", 
        "capital": "admin", 
        "lat": "35.31292", 
        "lng": "69.51519", 
        "population": ""
    }, 
    {
        "city": "N\u016brgal", 
        "admin": "Kuna\u1e5f", 
        "country": "Afghanistan", 
        "population_proper": "", 
        "iso2": "AF", 
        "capital": "minor", 
        "lat": "34.613406", 
        "lng": "70.764975", 
        "population": ""
    }, 
    {
        "city": "Salam Kh\u0113l", 
        "admin": "Paktiya", 
        "country": "Afghanistan", 
        "population_proper": "", 
        "iso2": "AF", 
        "capital": "minor", 
        "lat": "33.670666", 
        "lng": "69.329826", 
        "population": ""
    }, 
    {
        "city": "Khulm", 
        "admin": "Balkh", 
        "country": "Afghanistan", 
        "population_proper": "", 
        "iso2": "AF", 
        "capital": "minor", 
        "lat": "36.697362", 
        "lng": "67.698255", 
        "population": ""
    }, 
    {
        "city": "Qarq\u012bn", 
        "admin": "Jowzjan", 
        "country": "Afghanistan", 
        "population_proper": "", 
        "iso2": "AF", 
        "capital": "minor", 
        "lat": "37.41853", 
        "lng": "66.043581", 
        "population": ""
    }, 
    {
        "city": "Qal\u2018ah-ye Kuhnah", 
        "admin": "Farah", 
        "country": "Afghanistan", 
        "population_proper": "", 
        "iso2": "AF", 
        "capital": "minor", 
        "lat": "32.615909", 
        "lng": "63.666807", 
        "population": ""
    }, 
    {
        "city": "Qal\u2018ah-ye K\u016bf", 
        "admin": "Badakhshan", 
        "country": "Afghanistan", 
        "population_proper": "", 
        "iso2": "AF", 
        "capital": "minor", 
        "lat": "38.041189", 
        "lng": "70.472982", 
        "population": ""
    }, 
    {
        "city": "Jalr\u0113z", 
        "admin": "Wardak", 
        "country": "Afghanistan", 
        "population_proper": "", 
        "iso2": "AF", 
        "capital": "minor", 
        "lat": "34.470796", 
        "lng": "68.654378", 
        "population": ""
    }, 
    {
        "city": "Nadir Shah K\u014d\u1e6f", 
        "admin": "Nangarhar", 
        "country": "Afghanistan", 
        "population_proper": "", 
        "iso2": "AF", 
        "capital": "minor", 
        "lat": "34.243477", 
        "lng": "70.728546", 
        "population": ""
    }, 
    {
        "city": "\u2018Al\u012b Kh\u0113l", 
        "admin": "Paktiya", 
        "country": "Afghanistan", 
        "population_proper": "", 
        "iso2": "AF", 
        "capital": "minor", 
        "lat": "33.942528", 
        "lng": "69.719078", 
        "population": ""
    }, 
    {
        "city": "Fayr\u014dz K\u014dh", 
        "admin": "Gh\u014dr", 
        "country": "Afghanistan", 
        "population_proper": "", 
        "iso2": "AF", 
        "capital": "admin", 
        "lat": "34.519516", 
        "lng": "65.250935", 
        "population": ""
    }, 
    {
        "city": "Khwajah Ghar", 
        "admin": "Takhar", 
        "country": "Afghanistan", 
        "population_proper": "", 
        "iso2": "AF", 
        "capital": "minor", 
        "lat": "37.065883", 
        "lng": "69.421257", 
        "population": ""
    }, 
    {
        "city": "Sh\u0113rwan\u012b-ye Bala", 
        "admin": "Kap\u012bsa", 
        "country": "Afghanistan", 
        "population_proper": "", 
        "iso2": "AF", 
        "capital": "minor", 
        "lat": "35.014683", 
        "lng": "69.599342", 
        "population": ""
    }, 
    {
        "city": "Now Dahanak", 
        "admin": "Panjshir", 
        "country": "Afghanistan", 
        "population_proper": "", 
        "iso2": "AF", 
        "capital": "minor", 
        "lat": "35.623977", 
        "lng": "70.005106", 
        "population": ""
    }, 
    {
        "city": "Zindah Jan", 
        "admin": "Herat", 
        "country": "Afghanistan", 
        "population_proper": "", 
        "iso2": "AF", 
        "capital": "minor", 
        "lat": "34.342641", 
        "lng": "61.746747", 
        "population": ""
    }, 
    {
        "city": "Kan\u1e0fay", 
        "admin": "Kuna\u1e5f", 
        "country": "Afghanistan", 
        "population_proper": "", 
        "iso2": "AF", 
        "capital": "minor", 
        "lat": "34.953598", 
        "lng": "70.778974", 
        "population": ""
    }, 
    {
        "city": "Bazar-e Talah", 
        "admin": "Baghlan", 
        "country": "Afghanistan", 
        "population_proper": "", 
        "iso2": "AF", 
        "capital": "minor", 
        "lat": "35.39205", 
        "lng": "68.223168", 
        "population": ""
    }, 
    {
        "city": "\u0100faq\u012b", 
        "admin": "Takhar", 
        "country": "Afghanistan", 
        "population_proper": "", 
        "iso2": "AF", 
        "capital": "minor", 
        "lat": "36.661724", 
        "lng": "69.350952", 
        "population": ""
    }, 
    {
        "city": "Nahr\u012bn", 
        "admin": "Baghlan", 
        "country": "Afghanistan", 
        "population_proper": "", 
        "iso2": "AF", 
        "capital": "minor", 
        "lat": "36.064904", 
        "lng": "69.13343", 
        "population": ""
    }, 
    {
        "city": "Qashqal", 
        "admin": "Parwan", 
        "country": "Afghanistan", 
        "population_proper": "", 
        "iso2": "AF", 
        "capital": "minor", 
        "lat": "35.039747", 
        "lng": "69.006854", 
        "population": ""
    }, 
    {
        "city": "Maymay", 
        "admin": "Badakhshan", 
        "country": "Afghanistan", 
        "population_proper": "", 
        "iso2": "AF", 
        "capital": "minor", 
        "lat": "38.40856", 
        "lng": "71.038385", 
        "population": ""
    }, 
    {
        "city": "March", 
        "admin": "Badakhshan", 
        "country": "Afghanistan", 
        "population_proper": "", 
        "iso2": "AF", 
        "capital": "minor", 
        "lat": "37.528451", 
        "lng": "70.448201", 
        "population": ""
    }, 
    {
        "city": "\u014cmnah", 
        "admin": "Pakt\u012bka", 
        "country": "Afghanistan", 
        "population_proper": "", 
        "iso2": "AF", 
        "capital": "minor", 
        "lat": "32.900288", 
        "lng": "68.796265", 
        "population": ""
    }, 
    {
        "city": "Qarangh\u016b T\u014dgha\u012b", 
        "admin": "Balkh", 
        "country": "Afghanistan", 
        "population_proper": "", 
        "iso2": "AF", 
        "capital": "minor", 
        "lat": "37.215278", 
        "lng": "67.639722", 
        "population": ""
    }, 
    {
        "city": "Kh\u014dst", 
        "admin": "Kh\u014dst", 
        "country": "Afghanistan", 
        "population_proper": "", 
        "iso2": "AF", 
        "capital": "admin", 
        "lat": "33.339512", 
        "lng": "69.92041", 
        "population": ""
    }, 
    {
        "city": "Markaz-e Sayyidabad", 
        "admin": "Wardak", 
        "country": "Afghanistan", 
        "population_proper": "", 
        "iso2": "AF", 
        "capital": "minor", 
        "lat": "34.000367", 
        "lng": "68.713458", 
        "population": ""
    }, 
    {
        "city": "Mashhad", 
        "admin": "Badakhshan", 
        "country": "Afghanistan", 
        "population_proper": "", 
        "iso2": "AF", 
        "capital": "minor", 
        "lat": "36.81665", 
        "lng": "70.102108", 
        "population": ""
    }, 
    {
        "city": "Chow\u1e49\u00eay", 
        "admin": "Daykund\u012b", 
        "country": "Afghanistan", 
        "population_proper": "", 
        "iso2": "AF", 
        "capital": "minor", 
        "lat": "33.38278", 
        "lng": "66.272331", 
        "population": ""
    }, 
    {
        "city": "Sarfiraz Kala", 
        "admin": "Ghazn\u012b", 
        "country": "Afghanistan", 
        "population_proper": "", 
        "iso2": "AF", 
        "capital": "minor", 
        "lat": "32.983334", 
        "lng": "67.965167", 
        "population": ""
    }, 
    {
        "city": "Basawul", 
        "admin": "Nangarhar", 
        "country": "Afghanistan", 
        "population_proper": "", 
        "iso2": "AF", 
        "capital": "minor", 
        "lat": "34.247494", 
        "lng": "70.872177", 
        "population": ""
    }, 
    {
        "city": "Kuhsan", 
        "admin": "Herat", 
        "country": "Afghanistan", 
        "population_proper": "", 
        "iso2": "AF", 
        "capital": "minor", 
        "lat": "34.653889", 
        "lng": "61.197778", 
        "population": ""
    }, 
    {
        "city": "Wul\u00easwal\u012b Bihs\u016bd", 
        "admin": "Wardak", 
        "country": "Afghanistan", 
        "population_proper": "", 
        "iso2": "AF", 
        "capital": "minor", 
        "lat": "34.343602", 
        "lng": "67.905671", 
        "population": ""
    }, 
    {
        "city": "Anar Darah", 
        "admin": "Farah", 
        "country": "Afghanistan", 
        "population_proper": "", 
        "iso2": "AF", 
        "capital": "minor", 
        "lat": "32.758698", 
        "lng": "61.653969", 
        "population": ""
    }, 
    {
        "city": "Sp\u0113rah", 
        "admin": "Kh\u014dst", 
        "country": "Afghanistan", 
        "population_proper": "", 
        "iso2": "AF", 
        "capital": "minor", 
        "lat": "33.202038", 
        "lng": "69.515203", 
        "population": ""
    }, 
    {
        "city": "Nayak", 
        "admin": "Bamyan", 
        "country": "Afghanistan", 
        "population_proper": "", 
        "iso2": "AF", 
        "capital": "minor", 
        "lat": "34.734141", 
        "lng": "66.952921", 
        "population": ""
    }, 
    {
        "city": "Ghulam \u2018Al\u012b", 
        "admin": "Parwan", 
        "country": "Afghanistan", 
        "population_proper": "", 
        "iso2": "AF", 
        "capital": "minor", 
        "lat": "34.950758", 
        "lng": "69.228703", 
        "population": ""
    }, 
    {
        "city": "G\u014dshtah", 
        "admin": "Nangarhar", 
        "country": "Afghanistan", 
        "population_proper": "", 
        "iso2": "AF", 
        "capital": "minor", 
        "lat": "34.358223", 
        "lng": "70.762642", 
        "population": ""
    }, 
    {
        "city": "Mard\u012ban", 
        "admin": "Jowzjan", 
        "country": "Afghanistan", 
        "population_proper": "", 
        "iso2": "AF", 
        "capital": "minor", 
        "lat": "36.992524", 
        "lng": "66.296541", 
        "population": ""
    }, 
    {
        "city": "\u2018Alaqahdar\u012b Shah J\u014dy", 
        "admin": "Zabul", 
        "country": "Afghanistan", 
        "population_proper": "", 
        "iso2": "AF", 
        "capital": "minor", 
        "lat": "32.521541", 
        "lng": "67.413151", 
        "population": ""
    }, 
    {
        "city": "Gh\u014driyan", 
        "admin": "Herat", 
        "country": "Afghanistan", 
        "population_proper": "", 
        "iso2": "AF", 
        "capital": "minor", 
        "lat": "34.344798", 
        "lng": "61.493212", 
        "population": ""
    }, 
    {
        "city": "\u1e28uk\u016bmat\u012b Dahanah-ye Gh\u014dr\u012b", 
        "admin": "Baghlan", 
        "country": "Afghanistan", 
        "population_proper": "", 
        "iso2": "AF", 
        "capital": "minor", 
        "lat": "35.906168", 
        "lng": "68.488694", 
        "population": ""
    }, 
    {
        "city": "Zamt\u014d K\u00ealay", 
        "admin": "Kandahar", 
        "country": "Afghanistan", 
        "population_proper": "", 
        "iso2": "AF", 
        "capital": "minor", 
        "lat": "32.372604", 
        "lng": "66.177083", 
        "population": ""
    }, 
    {
        "city": "\u0100q Tapah", 
        "admin": "Kunduz", 
        "country": "Afghanistan", 
        "population_proper": "", 
        "iso2": "AF", 
        "capital": "minor", 
        "lat": "36.976593", 
        "lng": "68.572239", 
        "population": ""
    }, 
    {
        "city": "Baba \u015ea\u1e29ib", 
        "admin": "Kandahar", 
        "country": "Afghanistan", 
        "population_proper": "", 
        "iso2": "AF", 
        "capital": "minor", 
        "lat": "31.661439", 
        "lng": "65.660984", 
        "population": ""
    }, 
    {
        "city": "Ghurayd Gharam\u0113", 
        "admin": "Badakhshan", 
        "country": "Afghanistan", 
        "population_proper": "", 
        "iso2": "AF", 
        "capital": "minor", 
        "lat": "36.522204", 
        "lng": "70.790635", 
        "population": ""
    }, 
    {
        "city": "Chakaran", 
        "admin": "Badakhshan", 
        "country": "Afghanistan", 
        "population_proper": "", 
        "iso2": "AF", 
        "capital": "minor", 
        "lat": "36.911119", 
        "lng": "71.0688", 
        "population": ""
    }, 
    {
        "city": "Guz\u0304arah", 
        "admin": "Herat", 
        "country": "Afghanistan", 
        "population_proper": "", 
        "iso2": "AF", 
        "capital": "minor", 
        "lat": "34.212228", 
        "lng": "62.212353", 
        "population": ""
    }, 
    {
        "city": "Qal\u2018ah-ye Fars\u012b", 
        "admin": "Herat", 
        "country": "Afghanistan", 
        "population_proper": "", 
        "iso2": "AF", 
        "capital": "minor", 
        "lat": "33.785293", 
        "lng": "63.247354", 
        "population": ""
    }, 
    {
        "city": "Pul-e \u2018Alam", 
        "admin": "L\u014dgar", 
        "country": "Afghanistan", 
        "population_proper": "", 
        "iso2": "AF", 
        "capital": "admin", 
        "lat": "33.995289", 
        "lng": "69.02274", 
        "population": ""
    }, 
    {
        "city": "D\u016bab", 
        "admin": "Samangan", 
        "country": "Afghanistan", 
        "population_proper": "", 
        "iso2": "AF", 
        "capital": "minor", 
        "lat": "35.562772", 
        "lng": "67.821912", 
        "population": ""
    }, 
    {
        "city": "\u0162aqchah Khanah", 
        "admin": "Takhar", 
        "country": "Afghanistan", 
        "population_proper": "", 
        "iso2": "AF", 
        "capital": "minor", 
        "lat": "36.619217", 
        "lng": "69.628052", 
        "population": ""
    }, 
    {
        "city": "Deh-e \u015eala\u1e29", 
        "admin": "Baghlan", 
        "country": "Afghanistan", 
        "population_proper": "", 
        "iso2": "AF", 
        "capital": "minor", 
        "lat": "35.690306", 
        "lng": "69.315105", 
        "population": ""
    }, 
    {
        "city": "Now Zad", 
        "admin": "Helmand", 
        "country": "Afghanistan", 
        "population_proper": "", 
        "iso2": "AF", 
        "capital": "minor", 
        "lat": "32.403145", 
        "lng": "64.469588", 
        "population": ""
    }, 
    {
        "city": "\u1e28aj\u012b Kh\u0113l", 
        "admin": "Kap\u012bsa", 
        "country": "Afghanistan", 
        "population_proper": "", 
        "iso2": "AF", 
        "capital": "minor", 
        "lat": "35.109218", 
        "lng": "69.433412", 
        "population": ""
    }, 
    {
        "city": "Kh\u014dshamand", 
        "admin": "Pakt\u012bka", 
        "country": "Afghanistan", 
        "population_proper": "", 
        "iso2": "AF", 
        "capital": "minor", 
        "lat": "32.685667", 
        "lng": "68.238013", 
        "population": ""
    }, 
    {
        "city": "Chahar Qal\u2018ah", 
        "admin": "Ghazn\u012b", 
        "country": "Afghanistan", 
        "population_proper": "", 
        "iso2": "AF", 
        "capital": "minor", 
        "lat": "33.552672", 
        "lng": "68.29828", 
        "population": ""
    }, 
    {
        "city": "Pul-e Sang\u012b", 
        "admin": "Kabul", 
        "country": "Afghanistan", 
        "population_proper": "", 
        "iso2": "AF", 
        "capital": "minor", 
        "lat": "34.599721", 
        "lng": "69.259927", 
        "population": ""
    }, 
    {
        "city": "D\u016b La\u012bnah", 
        "admin": "Gh\u014dr", 
        "country": "Afghanistan", 
        "population_proper": "", 
        "iso2": "AF", 
        "capital": "minor", 
        "lat": "34.155987", 
        "lng": "64.785665", 
        "population": ""
    }, 
    {
        "city": "M\u012bray", 
        "admin": "Ghazn\u012b", 
        "country": "Afghanistan", 
        "population_proper": "", 
        "iso2": "AF", 
        "capital": "minor", 
        "lat": "33.324624", 
        "lng": "68.440682", 
        "population": ""
    }, 
    {
        "city": "S\u0332h\u0332\u0113wah", 
        "admin": "Nangarhar", 
        "country": "Afghanistan", 
        "population_proper": "", 
        "iso2": "AF", 
        "capital": "minor", 
        "lat": "34.571693", 
        "lng": "70.588593", 
        "population": ""
    }, 
    {
        "city": "Bazar-e Tashkan", 
        "admin": "Badakhshan", 
        "country": "Afghanistan", 
        "population_proper": "", 
        "iso2": "AF", 
        "capital": "minor", 
        "lat": "36.881678", 
        "lng": "70.276738", 
        "population": ""
    }, 
    {
        "city": "Kajran", 
        "admin": "Daykund\u012b", 
        "country": "Afghanistan", 
        "population_proper": "", 
        "iso2": "AF", 
        "capital": "minor", 
        "lat": "33.203568", 
        "lng": "65.473112", 
        "population": ""
    }, 
    {
        "city": "Ma\u012bdan Shahr", 
        "admin": "Wardak", 
        "country": "Afghanistan", 
        "population_proper": "", 
        "iso2": "AF", 
        "capital": "admin", 
        "lat": "34.395614", 
        "lng": "68.866179", 
        "population": ""
    }, 
    {
        "city": "Z\u012b\u1e5f\u016bk \u2018Alaqahdar\u012b", 
        "admin": "Pakt\u012bka", 
        "country": "Afghanistan", 
        "population_proper": "", 
        "iso2": "AF", 
        "capital": "minor", 
        "lat": "33.158056", 
        "lng": "69.312778", 
        "population": ""
    }, 
    {
        "city": "Taywarah", 
        "admin": "Gh\u014dr", 
        "country": "Afghanistan", 
        "population_proper": "", 
        "iso2": "AF", 
        "capital": "minor", 
        "lat": "33.521176", 
        "lng": "64.421156", 
        "population": ""
    }, 
    {
        "city": "Darqad", 
        "admin": "Takhar", 
        "country": "Afghanistan", 
        "population_proper": "", 
        "iso2": "AF", 
        "capital": "minor", 
        "lat": "37.384145", 
        "lng": "69.452941", 
        "population": ""
    }, 
    {
        "city": "Shaykh Am\u012br K\u00ealay", 
        "admin": "Kh\u014dst", 
        "country": "Afghanistan", 
        "population_proper": "", 
        "iso2": "AF", 
        "capital": "minor", 
        "lat": "33.287443", 
        "lng": "69.912834", 
        "population": ""
    }, 
    {
        "city": "Qa\u012b\u015far", 
        "admin": "Faryab", 
        "country": "Afghanistan", 
        "population_proper": "", 
        "iso2": "AF", 
        "capital": "minor", 
        "lat": "35.687469", 
        "lng": "64.293182", 
        "population": ""
    }, 
    {
        "city": "Qal\u2018ah-ye Na\u2018\u012bm", 
        "admin": "Kabul", 
        "country": "Afghanistan", 
        "population_proper": "", 
        "iso2": "AF", 
        "capital": "minor", 
        "lat": "34.39951", 
        "lng": "69.167051", 
        "population": ""
    }, 
    {
        "city": "Charkh", 
        "admin": "L\u014dgar", 
        "country": "Afghanistan", 
        "population_proper": "", 
        "iso2": "AF", 
        "capital": "minor", 
        "lat": "33.797122", 
        "lng": "68.937494", 
        "population": ""
    }, 
    {
        "city": "N\u016bsay", 
        "admin": "Badakhshan", 
        "country": "Afghanistan", 
        "population_proper": "", 
        "iso2": "AF", 
        "capital": "minor", 
        "lat": "38.443501", 
        "lng": "70.804133", 
        "population": ""
    }, 
    {
        "city": "\u2018Alaqahdar\u012b G\u0113lan", 
        "admin": "Ghazn\u012b", 
        "country": "Afghanistan", 
        "population_proper": "", 
        "iso2": "AF", 
        "capital": "minor", 
        "lat": "32.726923", 
        "lng": "67.636964", 
        "population": ""
    }, 
    {
        "city": "Wuluswal\u012b \u2018Al\u012bngar", 
        "admin": "Laghman", 
        "country": "Afghanistan", 
        "population_proper": "", 
        "iso2": "AF", 
        "capital": "minor", 
        "lat": "34.835294", 
        "lng": "70.359302", 
        "population": ""
    }, 
    {
        "city": "Lash-e Juwayn", 
        "admin": "Farah", 
        "country": "Afghanistan", 
        "population_proper": "", 
        "iso2": "AF", 
        "capital": "minor", 
        "lat": "31.713823", 
        "lng": "61.622723", 
        "population": ""
    }, 
    {
        "city": "Fay\u1e95abad", 
        "admin": "Faryab", 
        "country": "Afghanistan", 
        "population_proper": "", 
        "iso2": "AF", 
        "capital": "minor", 
        "lat": "36.291111", 
        "lng": "64.862222", 
        "population": ""
    }, 
    {
        "city": "Fa\u012b\u1e95abad", 
        "admin": "Jowzjan", 
        "country": "Afghanistan", 
        "population_proper": "", 
        "iso2": "AF", 
        "capital": "minor", 
        "lat": "36.82091", 
        "lng": "66.459213", 
        "population": ""
    }, 
    {
        "city": "\u2018Alaqahdar\u012b D\u012bsh\u016b", 
        "admin": "Helmand", 
        "country": "Afghanistan", 
        "population_proper": "", 
        "iso2": "AF", 
        "capital": "minor", 
        "lat": "30.432057", 
        "lng": "63.298024", 
        "population": ""
    }, 
    {
        "city": "Pach\u012br wa \u0100gam", 
        "admin": "Nangarhar", 
        "country": "Afghanistan", 
        "population_proper": "", 
        "iso2": "AF", 
        "capital": "minor", 
        "lat": "34.200108", 
        "lng": "70.278061", 
        "population": ""
    }, 
    {
        "city": "\u2018Alaqahdar\u012b A\u1e6fghar", 
        "admin": "Zabul", 
        "country": "Afghanistan", 
        "population_proper": "", 
        "iso2": "AF", 
        "capital": "minor", 
        "lat": "31.73506", 
        "lng": "67.357401", 
        "population": ""
    }, 
    {
        "city": "M\u012bran", 
        "admin": "Wardak", 
        "country": "Afghanistan", 
        "population_proper": "", 
        "iso2": "AF", 
        "capital": "minor", 
        "lat": "34.220375", 
        "lng": "68.312589", 
        "population": ""
    }, 
    {
        "city": "Z\u012barat-e Shah Maq\u015f\u016bd", 
        "admin": "Kandahar", 
        "country": "Afghanistan", 
        "population_proper": "", 
        "iso2": "AF", 
        "capital": "minor", 
        "lat": "31.984801", 
        "lng": "65.473604", 
        "population": ""
    }, 
    {
        "city": "Dasht-e Qal\u2018ah", 
        "admin": "Farah", 
        "country": "Afghanistan", 
        "population_proper": "", 
        "iso2": "AF", 
        "capital": "minor", 
        "lat": "33.029783", 
        "lng": "63.839497", 
        "population": ""
    }, 
    {
        "city": "Dasht-e Qal\u2018ah", 
        "admin": "Takhar", 
        "country": "Afghanistan", 
        "population_proper": "", 
        "iso2": "AF", 
        "capital": "minor", 
        "lat": "37.153904", 
        "lng": "69.443503", 
        "population": ""
    }, 
    {
        "city": "\u1e28uk\u016bmat-e Sh\u012bnka\u012b", 
        "admin": "Zabul", 
        "country": "Afghanistan", 
        "population_proper": "", 
        "iso2": "AF", 
        "capital": "minor", 
        "lat": "31.983034", 
        "lng": "67.335581", 
        "population": ""
    }, 
    {
        "city": "Khayr K\u014d\u1e6f", 
        "admin": "Pakt\u012bka", 
        "country": "Afghanistan", 
        "population_proper": "", 
        "iso2": "AF", 
        "capital": "minor", 
        "lat": "32.853546", 
        "lng": "68.449715", 
        "population": ""
    }, 
    {
        "city": "T\u016blak", 
        "admin": "Gh\u014dr", 
        "country": "Afghanistan", 
        "population_proper": "", 
        "iso2": "AF", 
        "capital": "minor", 
        "lat": "33.975086", 
        "lng": "63.72868", 
        "population": ""
    }, 
    {
        "city": "Tsowk\u00eay", 
        "admin": "Kuna\u1e5f", 
        "country": "Afghanistan", 
        "population_proper": "", 
        "iso2": "AF", 
        "capital": "minor", 
        "lat": "34.692459", 
        "lng": "70.92688", 
        "population": ""
    }, 
    {
        "city": "Khanabad", 
        "admin": "Kunduz", 
        "country": "Afghanistan", 
        "population_proper": "", 
        "iso2": "AF", 
        "capital": "minor", 
        "lat": "36.683037", 
        "lng": "69.112793", 
        "population": ""
    }, 
    {
        "city": "Sar\u014db\u012b", 
        "admin": "Kabul", 
        "country": "Afghanistan", 
        "population_proper": "", 
        "iso2": "AF", 
        "capital": "minor", 
        "lat": "34.589615", 
        "lng": "69.760047", 
        "population": ""
    }, 
    {
        "city": "Chakaray", 
        "admin": "Kabul", 
        "country": "Afghanistan", 
        "population_proper": "", 
        "iso2": "AF", 
        "capital": "minor", 
        "lat": "34.340986", 
        "lng": "69.437695", 
        "population": ""
    }, 
    {
        "city": "Khad\u012br", 
        "admin": "Daykund\u012b", 
        "country": "Afghanistan", 
        "population_proper": "", 
        "iso2": "AF", 
        "capital": "minor", 
        "lat": "33.922324", 
        "lng": "65.93398", 
        "population": ""
    }, 
    {
        "city": "Baghlan", 
        "admin": "Baghlan", 
        "country": "Afghanistan", 
        "population_proper": "", 
        "iso2": "AF", 
        "capital": "minor", 
        "lat": "36.130684", 
        "lng": "68.708286", 
        "population": ""
    }, 
    {
        "city": "Urg\u016bn", 
        "admin": "Pakt\u012bka", 
        "country": "Afghanistan", 
        "population_proper": "", 
        "iso2": "AF", 
        "capital": "minor", 
        "lat": "32.941111", 
        "lng": "69.18", 
        "population": ""
    }, 
    {
        "city": "Ibrah\u012bm Khan", 
        "admin": "Parwan", 
        "country": "Afghanistan", 
        "population_proper": "", 
        "iso2": "AF", 
        "capital": "minor", 
        "lat": "35.05352", 
        "lng": "69.256539", 
        "population": ""
    }, 
    {
        "city": "Jurm", 
        "admin": "Badakhshan", 
        "country": "Afghanistan", 
        "population_proper": "", 
        "iso2": "AF", 
        "capital": "minor", 
        "lat": "36.864768", 
        "lng": "70.834207", 
        "population": ""
    }, 
    {
        "city": "Bala Murghab", 
        "admin": "Badgh\u012bs", 
        "country": "Afghanistan", 
        "population_proper": "", 
        "iso2": "AF", 
        "capital": "minor", 
        "lat": "35.584191", 
        "lng": "63.329563", 
        "population": ""
    }, 
    {
        "city": "Narang", 
        "admin": "Kuna\u1e5f", 
        "country": "Afghanistan", 
        "population_proper": "", 
        "iso2": "AF", 
        "capital": "minor", 
        "lat": "34.760091", 
        "lng": "71.047376", 
        "population": ""
    }, 
    {
        "city": "Raba\u0163-e Sang\u012b-ye Pa\u2019\u012bn", 
        "admin": "Herat", 
        "country": "Afghanistan", 
        "population_proper": "", 
        "iso2": "AF", 
        "capital": "minor", 
        "lat": "34.799514", 
        "lng": "62.139172", 
        "population": ""
    }, 
    {
        "city": "\u2018Al\u012babad", 
        "admin": "Kunduz", 
        "country": "Afghanistan", 
        "population_proper": "", 
        "iso2": "AF", 
        "capital": "minor", 
        "lat": "36.521149", 
        "lng": "68.899849", 
        "population": ""
    }, 
    {
        "city": "Dehdad\u012b", 
        "admin": "Balkh", 
        "country": "Afghanistan", 
        "population_proper": "", 
        "iso2": "AF", 
        "capital": "minor", 
        "lat": "36.663187", 
        "lng": "66.993392", 
        "population": ""
    }, 
    {
        "city": "Sul\u0163anp\u016br-e \u2018Ulya", 
        "admin": "Nangarhar", 
        "country": "Afghanistan", 
        "population_proper": "", 
        "iso2": "AF", 
        "capital": "minor", 
        "lat": "34.412045", 
        "lng": "70.296341", 
        "population": ""
    }, 
    {
        "city": "B\u016brkah", 
        "admin": "Baghlan", 
        "country": "Afghanistan", 
        "population_proper": "", 
        "iso2": "AF", 
        "capital": "minor", 
        "lat": "36.222424", 
        "lng": "69.150375", 
        "population": ""
    }, 
    {
        "city": "Chisht-e Shar\u012bf", 
        "admin": "Herat", 
        "country": "Afghanistan", 
        "population_proper": "", 
        "iso2": "AF", 
        "capital": "minor", 
        "lat": "34.347308", 
        "lng": "63.739659", 
        "population": ""
    }, 
    {
        "city": "\u2018Alaqahdar\u012b Kiran wa Munjan", 
        "admin": "Badakhshan", 
        "country": "Afghanistan", 
        "population_proper": "", 
        "iso2": "AF", 
        "capital": "minor", 
        "lat": "36.028663", 
        "lng": "70.772575", 
        "population": ""
    }, 
    {
        "city": "D\u014dsh\u012b", 
        "admin": "Baghlan", 
        "country": "Afghanistan", 
        "population_proper": "", 
        "iso2": "AF", 
        "capital": "minor", 
        "lat": "35.609182", 
        "lng": "68.684729", 
        "population": ""
    }, 
    {
        "city": "Sangar Saray", 
        "admin": "Nangarhar", 
        "country": "Afghanistan", 
        "population_proper": "", 
        "iso2": "AF", 
        "capital": "minor", 
        "lat": "34.407438", 
        "lng": "70.639374", 
        "population": ""
    }, 
    {
        "city": "R\u016b-ye Sang", 
        "admin": "Bamyan", 
        "country": "Afghanistan", 
        "population_proper": "", 
        "iso2": "AF", 
        "capital": "minor", 
        "lat": "35.319992", 
        "lng": "67.633871", 
        "population": ""
    }, 
    {
        "city": "\u0100qchah", 
        "admin": "Jowzjan", 
        "country": "Afghanistan", 
        "population_proper": "", 
        "iso2": "AF", 
        "capital": "minor", 
        "lat": "36.905001", 
        "lng": "66.183407", 
        "population": ""
    }, 
    {
        "city": "Sh\u012bn\u1e0fan\u1e0f", 
        "admin": "Herat", 
        "country": "Afghanistan", 
        "population_proper": "", 
        "iso2": "AF", 
        "capital": "minor", 
        "lat": "33.302944", 
        "lng": "62.1474", 
        "population": ""
    }, 
    {
        "city": "Barg-e Matal", 
        "admin": "N\u016bristan", 
        "country": "Afghanistan", 
        "population_proper": "", 
        "iso2": "AF", 
        "capital": "minor", 
        "lat": "35.672831", 
        "lng": "71.343387", 
        "population": ""
    }, 
    {
        "city": "Ban\u016b", 
        "admin": "Baghlan", 
        "country": "Afghanistan", 
        "population_proper": "", 
        "iso2": "AF", 
        "capital": "minor", 
        "lat": "35.633484", 
        "lng": "69.260195", 
        "population": ""
    }, 
    {
        "city": "K\u014d\u1e6fowal", 
        "admin": "Nangarhar", 
        "country": "Afghanistan", 
        "population_proper": "", 
        "iso2": "AF", 
        "capital": "minor", 
        "lat": "34.103193", 
        "lng": "70.460734", 
        "population": ""
    }, 
    {
        "city": "Sar Chakan", 
        "admin": "Faryab", 
        "country": "Afghanistan", 
        "population_proper": "", 
        "iso2": "AF", 
        "capital": "minor", 
        "lat": "35.701775", 
        "lng": "65.230553", 
        "population": ""
    }, 
    {
        "city": "Zurmat", 
        "admin": "Paktiya", 
        "country": "Afghanistan", 
        "population_proper": "", 
        "iso2": "AF", 
        "capital": "minor", 
        "lat": "33.437782", 
        "lng": "69.02774", 
        "population": ""
    }, 
    {
        "city": "Dangam", 
        "admin": "Kuna\u1e5f", 
        "country": "Afghanistan", 
        "population_proper": "", 
        "iso2": "AF", 
        "capital": "minor", 
        "lat": "34.992492", 
        "lng": "71.419355", 
        "population": ""
    }, 
    {
        "city": "Pas Pul", 
        "admin": "Badakhshan", 
        "country": "Afghanistan", 
        "population_proper": "", 
        "iso2": "AF", 
        "capital": "minor", 
        "lat": "37.47355", 
        "lng": "70.616173", 
        "population": ""
    }, 
    {
        "city": "Khulbisat", 
        "admin": "Kh\u014dst", 
        "country": "Afghanistan", 
        "population_proper": "", 
        "iso2": "AF", 
        "capital": "minor", 
        "lat": "33.494795", 
        "lng": "70.006054", 
        "population": ""
    }, 
    {
        "city": "Chandal Ba\u2019\u012b", 
        "admin": "Kabul", 
        "country": "Afghanistan", 
        "population_proper": "", 
        "iso2": "AF", 
        "capital": "minor", 
        "lat": "34.584694", 
        "lng": "68.955235", 
        "population": ""
    }, 
    {
        "city": "Bagh-e Ma\u012bdan", 
        "admin": "Parwan", 
        "country": "Afghanistan", 
        "population_proper": "", 
        "iso2": "AF", 
        "capital": "minor", 
        "lat": "35.221562", 
        "lng": "69.213967", 
        "population": ""
    }, 
    {
        "city": "Kalakan", 
        "admin": "Kabul", 
        "country": "Afghanistan", 
        "population_proper": "", 
        "iso2": "AF", 
        "capital": "minor", 
        "lat": "34.783706", 
        "lng": "69.150012", 
        "population": ""
    }, 
    {
        "city": "Lash", 
        "admin": "Faryab", 
        "country": "Afghanistan", 
        "population_proper": "", 
        "iso2": "AF", 
        "capital": "minor", 
        "lat": "35.378197", 
        "lng": "64.774567", 
        "population": ""
    }, 
    {
        "city": "Surkh Biland\u012b", 
        "admin": "Kabul", 
        "country": "Afghanistan", 
        "population_proper": "", 
        "iso2": "AF", 
        "capital": "minor", 
        "lat": "34.684739", 
        "lng": "69.028632", 
        "population": ""
    }, 
    {
        "city": "Nayak", 
        "admin": "Zabul", 
        "country": "Afghanistan", 
        "population_proper": "", 
        "iso2": "AF", 
        "capital": "minor", 
        "lat": "32.572298", 
        "lng": "66.774032", 
        "population": ""
    }, 
    {
        "city": "Alah Say", 
        "admin": "Kap\u012bsa", 
        "country": "Afghanistan", 
        "population_proper": "", 
        "iso2": "AF", 
        "capital": "minor", 
        "lat": "34.8965", 
        "lng": "69.72049", 
        "population": ""
    }, 
    {
        "city": "Siyahgird", 
        "admin": "Parwan", 
        "country": "Afghanistan", 
        "population_proper": "", 
        "iso2": "AF", 
        "capital": "minor", 
        "lat": "35.005529", 
        "lng": "68.855778", 
        "population": ""
    }, 
    {
        "city": "Sar-e Pul", 
        "admin": "Sar-e Pul", 
        "country": "Afghanistan", 
        "population_proper": "", 
        "iso2": "AF", 
        "capital": "admin", 
        "lat": "36.215443", 
        "lng": "65.932487", 
        "population": ""
    }, 
    {
        "city": "\u2018Al\u012b Sh\u0113r \u2018Alaqahdar\u012b", 
        "admin": "Kh\u014dst", 
        "country": "Afghanistan", 
        "population_proper": "", 
        "iso2": "AF", 
        "capital": "minor", 
        "lat": "33.436204", 
        "lng": "70.067109", 
        "population": ""
    }, 
    {
        "city": "Ma\u1e49\u014dgay", 
        "admin": "Kuna\u1e5f", 
        "country": "Afghanistan", 
        "population_proper": "", 
        "iso2": "AF", 
        "capital": "minor", 
        "lat": "34.990152", 
        "lng": "70.913015", 
        "population": ""
    }, 
    {
        "city": "Khwajah D\u016b K\u014dh", 
        "admin": "Jowzjan", 
        "country": "Afghanistan", 
        "population_proper": "", 
        "iso2": "AF", 
        "capital": "minor", 
        "lat": "36.828808", 
        "lng": "65.624321", 
        "population": ""
    }, 
    {
        "city": "Kaz\u0332h\u0332ah", 
        "admin": "Nangarhar", 
        "country": "Afghanistan", 
        "population_proper": "", 
        "iso2": "AF", 
        "capital": "minor", 
        "lat": "34.240875", 
        "lng": "70.182738", 
        "population": ""
    }, 
    {
        "city": "Shwak", 
        "admin": "Paktiya", 
        "country": "Afghanistan", 
        "population_proper": "", 
        "iso2": "AF", 
        "capital": "minor", 
        "lat": "33.423862", 
        "lng": "69.376839", 
        "population": ""
    }, 
    {
        "city": "Khinjan", 
        "admin": "Baghlan", 
        "country": "Afghanistan", 
        "population_proper": "", 
        "iso2": "AF", 
        "capital": "minor", 
        "lat": "35.589081", 
        "lng": "68.900928", 
        "population": ""
    }, 
    {
        "city": "Jan\u012b Kh\u0113l", 
        "admin": "Pakt\u012bka", 
        "country": "Afghanistan", 
        "population_proper": "", 
        "iso2": "AF", 
        "capital": "minor", 
        "lat": "32.763148", 
        "lng": "68.397224", 
        "population": ""
    }, 
    {
        "city": "Sayagaz", 
        "admin": "Zabul", 
        "country": "Afghanistan", 
        "population_proper": "", 
        "iso2": "AF", 
        "capital": "minor", 
        "lat": "32.565214", 
        "lng": "67.033239", 
        "population": ""
    }, 
    {
        "city": "Panjab", 
        "admin": "Bamyan", 
        "country": "Afghanistan", 
        "population_proper": "", 
        "iso2": "AF", 
        "capital": "minor", 
        "lat": "34.387949", 
        "lng": "67.023273", 
        "population": ""
    }, 
    {
        "city": "Khamyab", 
        "admin": "Jowzjan", 
        "country": "Afghanistan", 
        "population_proper": "", 
        "iso2": "AF", 
        "capital": "minor", 
        "lat": "37.5275", 
        "lng": "65.758333", 
        "population": ""
    }, 
    {
        "city": "Khakiran", 
        "admin": "Zabul", 
        "country": "Afghanistan", 
        "population_proper": "", 
        "iso2": "AF", 
        "capital": "minor", 
        "lat": "32.838503", 
        "lng": "67.073771", 
        "population": ""
    }, 
    {
        "city": "Ya\u1e29y\u00e1 Kh\u0113l", 
        "admin": "Pakt\u012bka", 
        "country": "Afghanistan", 
        "population_proper": "", 
        "iso2": "AF", 
        "capital": "minor", 
        "lat": "32.937423", 
        "lng": "68.64622", 
        "population": ""
    }, 
    {
        "city": "Tsap\u00eara\u012b", 
        "admin": "Paktiya", 
        "country": "Afghanistan", 
        "population_proper": "", 
        "iso2": "AF", 
        "capital": "minor", 
        "lat": "33.830029", 
        "lng": "69.919197", 
        "population": ""
    }, 
    {
        "city": "Mingajik", 
        "admin": "Jowzjan", 
        "country": "Afghanistan", 
        "population_proper": "", 
        "iso2": "AF", 
        "capital": "minor", 
        "lat": "37.027901", 
        "lng": "66.128171", 
        "population": ""
    }, 
    {
        "city": "Ramak", 
        "admin": "Ghazn\u012b", 
        "country": "Afghanistan", 
        "population_proper": "", 
        "iso2": "AF", 
        "capital": "minor", 
        "lat": "33.522339", 
        "lng": "68.626396", 
        "population": ""
    }, 
    {
        "city": "Markaz-e \u1e28uk\u016bmat-e Sul\u0163an-e Bakwah", 
        "admin": "Farah", 
        "country": "Afghanistan", 
        "population_proper": "", 
        "iso2": "AF", 
        "capital": "minor", 
        "lat": "32.241391", 
        "lng": "62.949361", 
        "population": ""
    }, 
    {
        "city": "Inj\u012bl", 
        "admin": "Herat", 
        "country": "Afghanistan", 
        "population_proper": "", 
        "iso2": "AF", 
        "capital": "minor", 
        "lat": "34.301566", 
        "lng": "62.2465", 
        "population": ""
    }, 
    {
        "city": "Langar", 
        "admin": "Samangan", 
        "country": "Afghanistan", 
        "population_proper": "", 
        "iso2": "AF", 
        "capital": "minor", 
        "lat": "35.994741", 
        "lng": "68.050808", 
        "population": ""
    }, 
    {
        "city": "D\u00ea Narkh\u0113l K\u00ealay", 
        "admin": "Kandahar", 
        "country": "Afghanistan", 
        "population_proper": "", 
        "iso2": "AF", 
        "capital": "minor", 
        "lat": "32.432052", 
        "lng": "65.634838", 
        "population": ""
    }, 
    {
        "city": "Chah \u0100b", 
        "admin": "Takhar", 
        "country": "Afghanistan", 
        "population_proper": "", 
        "iso2": "AF", 
        "capital": "minor", 
        "lat": "37.397734", 
        "lng": "69.814644", 
        "population": ""
    }, 
    {
        "city": "St\u00ear Giyan", 
        "admin": "Pakt\u012bka", 
        "country": "Afghanistan", 
        "population_proper": "", 
        "iso2": "AF", 
        "capital": "minor", 
        "lat": "32.977043", 
        "lng": "69.373077", 
        "population": ""
    }, 
    {
        "city": "Khand\u016bd", 
        "admin": "Badakhshan", 
        "country": "Afghanistan", 
        "population_proper": "", 
        "iso2": "AF", 
        "capital": "minor", 
        "lat": "36.951272", 
        "lng": "72.317998", 
        "population": ""
    }, 
    {
        "city": "Wul\u00easwal\u012b Sayyid Karam", 
        "admin": "Paktiya", 
        "country": "Afghanistan", 
        "population_proper": "", 
        "iso2": "AF", 
        "capital": "minor", 
        "lat": "33.690563", 
        "lng": "69.368813", 
        "population": ""
    }, 
    {
        "city": "Mama Kh\u0113l", 
        "admin": "Nangarhar", 
        "country": "Afghanistan", 
        "population_proper": "", 
        "iso2": "AF", 
        "capital": "minor", 
        "lat": "34.244938", 
        "lng": "69.996803", 
        "population": ""
    }, 
    {
        "city": "M\u012bzan \u2018Alaqahdar\u012b", 
        "admin": "Zabul", 
        "country": "Afghanistan", 
        "population_proper": "", 
        "iso2": "AF", 
        "capital": "minor", 
        "lat": "32.176351", 
        "lng": "66.512706", 
        "population": ""
    }, 
    {
        "city": "Quchangh\u012b", 
        "admin": "Daykund\u012b", 
        "country": "Afghanistan", 
        "population_proper": "", 
        "iso2": "AF", 
        "capital": "minor", 
        "lat": "34.061826", 
        "lng": "66.278014", 
        "population": ""
    }, 
    {
        "city": "Zaybak", 
        "admin": "Badakhshan", 
        "country": "Afghanistan", 
        "population_proper": "", 
        "iso2": "AF", 
        "capital": "minor", 
        "lat": "36.529474", 
        "lng": "71.344096", 
        "population": ""
    }, 
    {
        "city": "Tsamkan\u012b", 
        "admin": "Paktiya", 
        "country": "Afghanistan", 
        "population_proper": "", 
        "iso2": "AF", 
        "capital": "minor", 
        "lat": "33.802979", 
        "lng": "69.816708", 
        "population": ""
    }, 
    {
        "city": "Bal Chiragh", 
        "admin": "Faryab", 
        "country": "Afghanistan", 
        "population_proper": "", 
        "iso2": "AF", 
        "capital": "minor", 
        "lat": "35.840263", 
        "lng": "65.230896", 
        "population": ""
    }, 
    {
        "city": "\u1e28afiz\u0327 Moghul", 
        "admin": "Badakhshan", 
        "country": "Afghanistan", 
        "population_proper": "", 
        "iso2": "AF", 
        "capital": "minor", 
        "lat": "37.056434", 
        "lng": "70.400606", 
        "population": ""
    }, 
    {
        "city": "Deh\u012b", 
        "admin": "Samangan", 
        "country": "Afghanistan", 
        "population_proper": "", 
        "iso2": "AF", 
        "capital": "minor", 
        "lat": "35.958063", 
        "lng": "67.279983", 
        "population": ""
    }, 
    {
        "city": "Pashm\u016bl", 
        "admin": "Kandahar", 
        "country": "Afghanistan", 
        "population_proper": "", 
        "iso2": "AF", 
        "capital": "minor", 
        "lat": "31.557203", 
        "lng": "65.434295", 
        "population": ""
    }, 
    {
        "city": "Kushkak", 
        "admin": "Farah", 
        "country": "Afghanistan", 
        "population_proper": "", 
        "iso2": "AF", 
        "capital": "minor", 
        "lat": "32.289906", 
        "lng": "61.521942", 
        "population": ""
    }, 
    {
        "city": "Jabal us Saraj", 
        "admin": "Parwan", 
        "country": "Afghanistan", 
        "population_proper": "", 
        "iso2": "AF", 
        "capital": "minor", 
        "lat": "35.121491", 
        "lng": "69.23725", 
        "population": ""
    }, 
    {
        "city": "Kishk-e Nakh\u016bd", 
        "admin": "Kandahar", 
        "country": "Afghanistan", 
        "population_proper": "", 
        "iso2": "AF", 
        "capital": "minor", 
        "lat": "31.62519", 
        "lng": "65.055108", 
        "population": ""
    }, 
    {
        "city": "Na\u1e5fay", 
        "admin": "Kuna\u1e5f", 
        "country": "Afghanistan", 
        "population_proper": "", 
        "iso2": "AF", 
        "capital": "minor", 
        "lat": "35.219953", 
        "lng": "71.522838", 
        "population": ""
    }, 
    {
        "city": "\u0100q Kupruk", 
        "admin": "Balkh", 
        "country": "Afghanistan", 
        "population_proper": "", 
        "iso2": "AF", 
        "capital": "minor", 
        "lat": "36.083517", 
        "lng": "66.840293", 
        "population": ""
    }, 
    {
        "city": "Muta Khan", 
        "admin": "Pakt\u012bka", 
        "country": "Afghanistan", 
        "population_proper": "", 
        "iso2": "AF", 
        "capital": "minor", 
        "lat": "33.240008", 
        "lng": "68.866296", 
        "population": ""
    }, 
    {
        "city": "T\u014drmay", 
        "admin": "Ghazn\u012b", 
        "country": "Afghanistan", 
        "population_proper": "", 
        "iso2": "AF", 
        "capital": "minor", 
        "lat": "33.688469", 
        "lng": "68.402045", 
        "population": ""
    }, 
    {
        "city": "Deh-e Now", 
        "admin": "Kabul", 
        "country": "Afghanistan", 
        "population_proper": "", 
        "iso2": "AF", 
        "capital": "minor", 
        "lat": "34.747667", 
        "lng": "69.047844", 
        "population": ""
    }, 
    {
        "city": "\u2018Alaqahdar\u012b Sa\u1e5f\u014db\u012b", 
        "admin": "Pakt\u012bka", 
        "country": "Afghanistan", 
        "population_proper": "", 
        "iso2": "AF", 
        "capital": "minor", 
        "lat": "32.793308", 
        "lng": "69.086601", 
        "population": ""
    }, 
    {
        "city": "Sang\u012bn", 
        "admin": "Helmand", 
        "country": "Afghanistan", 
        "population_proper": "", 
        "iso2": "AF", 
        "capital": "minor", 
        "lat": "32.072752", 
        "lng": "64.835903", 
        "population": ""
    }, 
    {
        "city": "Wash\u0113r", 
        "admin": "Helmand", 
        "country": "Afghanistan", 
        "population_proper": "", 
        "iso2": "AF", 
        "capital": "minor", 
        "lat": "32.251225", 
        "lng": "63.85553", 
        "population": ""
    }, 
    {
        "city": "Dowr-e Raba\u0163", 
        "admin": "Kunduz", 
        "country": "Afghanistan", 
        "population_proper": "", 
        "iso2": "AF", 
        "capital": "minor", 
        "lat": "36.691324", 
        "lng": "68.790927", 
        "population": ""
    }, 
    {
        "city": "Kushk-e Kuhnah", 
        "admin": "Herat", 
        "country": "Afghanistan", 
        "population_proper": "", 
        "iso2": "AF", 
        "capital": "minor", 
        "lat": "34.871096", 
        "lng": "62.547621", 
        "population": ""
    }, 
    {
        "city": "Z\u012brak\u012b", 
        "admin": "Badakhshan", 
        "country": "Afghanistan", 
        "population_proper": "", 
        "iso2": "AF", 
        "capital": "minor", 
        "lat": "37.592334", 
        "lng": "70.558138", 
        "population": ""
    }, 
    {
        "city": "Sar-e Tayghan", 
        "admin": "Daykund\u012b", 
        "country": "Afghanistan", 
        "population_proper": "", 
        "iso2": "AF", 
        "capital": "minor", 
        "lat": "33.50998", 
        "lng": "65.676323", 
        "population": ""
    }, 
    {
        "city": "\u0100b-e Kamar\u012b", 
        "admin": "Badgh\u012bs", 
        "country": "Afghanistan", 
        "population_proper": "", 
        "iso2": "AF", 
        "capital": "minor", 
        "lat": "35.087955", 
        "lng": "63.067796", 
        "population": ""
    }, 
    {
        "city": "Darzab", 
        "admin": "Jowzjan", 
        "country": "Afghanistan", 
        "population_proper": "", 
        "iso2": "AF", 
        "capital": "minor", 
        "lat": "35.97744", 
        "lng": "65.378281", 
        "population": ""
    }, 
    {
        "city": "Par\u016bn", 
        "admin": "N\u016bristan", 
        "country": "Afghanistan", 
        "population_proper": "", 
        "iso2": "AF", 
        "capital": "admin", 
        "lat": "35.420644", 
        "lng": "70.922612", 
        "population": ""
    }, 
    {
        "city": "Khanaqah", 
        "admin": "Takhar", 
        "country": "Afghanistan", 
        "population_proper": "", 
        "iso2": "AF", 
        "capital": "minor", 
        "lat": "36.62587", 
        "lng": "69.536948", 
        "population": ""
    }, 
    {
        "city": "Deh Khwahan", 
        "admin": "Badakhshan", 
        "country": "Afghanistan", 
        "population_proper": "", 
        "iso2": "AF", 
        "capital": "minor", 
        "lat": "37.889653", 
        "lng": "70.218753", 
        "population": ""
    }, 
    {
        "city": "Adraskan", 
        "admin": "Herat", 
        "country": "Afghanistan", 
        "population_proper": "", 
        "iso2": "AF", 
        "capital": "minor", 
        "lat": "33.645728", 
        "lng": "62.269587", 
        "population": ""
    }, 
    {
        "city": "La\u2018l", 
        "admin": "Gh\u014dr", 
        "country": "Afghanistan", 
        "population_proper": "", 
        "iso2": "AF", 
        "capital": "minor", 
        "lat": "34.501408", 
        "lng": "66.279965", 
        "population": ""
    }, 
    {
        "city": "Mu\u1e29ammad \u0100ghah Wuluswal\u012b", 
        "admin": "L\u014dgar", 
        "country": "Afghanistan", 
        "population_proper": "", 
        "iso2": "AF", 
        "capital": "minor", 
        "lat": "34.214216", 
        "lng": "69.100265", 
        "population": ""
    }, 
    {
        "city": "Kh\u014dsh\u012b", 
        "admin": "L\u014dgar", 
        "country": "Afghanistan", 
        "population_proper": "", 
        "iso2": "AF", 
        "capital": "minor", 
        "lat": "33.999159", 
        "lng": "69.215824", 
        "population": ""
    }, 
    {
        "city": "Bul\u014dlah", 
        "admin": "Bamyan", 
        "country": "Afghanistan", 
        "population_proper": "", 
        "iso2": "AF", 
        "capital": "minor", 
        "lat": "34.877061", 
        "lng": "68.087903", 
        "population": ""
    }, 
    {
        "city": "\u2018Alaqahdar\u012b Y\u014dsuf Kh\u0113l", 
        "admin": "Pakt\u012bka", 
        "country": "Afghanistan", 
        "population_proper": "", 
        "iso2": "AF", 
        "capital": "minor", 
        "lat": "33.051945", 
        "lng": "68.65", 
        "population": ""
    }, 
    {
        "city": "Kalafgan", 
        "admin": "Takhar", 
        "country": "Afghanistan", 
        "population_proper": "", 
        "iso2": "AF", 
        "capital": "minor", 
        "lat": "36.772259", 
        "lng": "69.944894", 
        "population": ""
    }, 
    {
        "city": "Qarah Bagh", 
        "admin": "Herat", 
        "country": "Afghanistan", 
        "population_proper": "", 
        "iso2": "AF", 
        "capital": "minor", 
        "lat": "34.940233", 
        "lng": "61.775888", 
        "population": ""
    }, 
    {
        "city": "Qarah Bagh", 
        "admin": "Ghazn\u012b", 
        "country": "Afghanistan", 
        "population_proper": "", 
        "iso2": "AF", 
        "capital": "minor", 
        "lat": "33.198014", 
        "lng": "68.107977", 
        "population": ""
    }, 
    {
        "city": "\u015eayad", 
        "admin": "Sar-e Pul", 
        "country": "Afghanistan", 
        "population_proper": "", 
        "iso2": "AF", 
        "capital": "minor", 
        "lat": "36.135292", 
        "lng": "65.829697", 
        "population": ""
    }, 
    {
        "city": "Dowlatabad", 
        "admin": "Faryab", 
        "country": "Afghanistan", 
        "population_proper": "", 
        "iso2": "AF", 
        "capital": "minor", 
        "lat": "36.432589", 
        "lng": "64.920713", 
        "population": ""
    }, 
    {
        "city": "Dowlatabad", 
        "admin": "Balkh", 
        "country": "Afghanistan", 
        "population_proper": "", 
        "iso2": "AF", 
        "capital": "minor", 
        "lat": "36.988211", 
        "lng": "66.82069", 
        "population": ""
    }, 
    {
        "city": "\u2018Alaqahdar\u012b-ye Almar", 
        "admin": "Faryab", 
        "country": "Afghanistan", 
        "population_proper": "", 
        "iso2": "AF", 
        "capital": "minor", 
        "lat": "35.846163", 
        "lng": "64.530735", 
        "population": ""
    }, 
    {
        "city": "Bamyan", 
        "admin": "Bamyan", 
        "country": "Afghanistan", 
        "population_proper": "", 
        "iso2": "AF", 
        "capital": "admin", 
        "lat": "34.821558", 
        "lng": "67.827338", 
        "population": ""
    }, 
    {
        "city": "Qarah Bagh Bazar", 
        "admin": "Kabul", 
        "country": "Afghanistan", 
        "population_proper": "", 
        "iso2": "AF", 
        "capital": "minor", 
        "lat": "34.852898", 
        "lng": "69.170619", 
        "population": ""
    }, 
    {
        "city": "Sharan", 
        "admin": "Pakt\u012bka", 
        "country": "Afghanistan", 
        "population_proper": "", 
        "iso2": "AF", 
        "capital": "admin", 
        "lat": "33.175678", 
        "lng": "68.730449", 
        "population": ""
    }, 
    {
        "city": "Shahrak", 
        "admin": "Gh\u014dr", 
        "country": "Afghanistan", 
        "population_proper": "", 
        "iso2": "AF", 
        "capital": "minor", 
        "lat": "34.107375", 
        "lng": "64.305199", 
        "population": ""
    }, 
    {
        "city": "Shahran", 
        "admin": "Badakhshan", 
        "country": "Afghanistan", 
        "population_proper": "", 
        "iso2": "AF", 
        "capital": "minor", 
        "lat": "36.979844", 
        "lng": "70.739284", 
        "population": ""
    }, 
    {
        "city": "Qurghan", 
        "admin": "Faryab", 
        "country": "Afghanistan", 
        "population_proper": "", 
        "iso2": "AF", 
        "capital": "minor", 
        "lat": "36.919393", 
        "lng": "65.064904", 
        "population": ""
    }, 
    {
        "city": "\u2019Unabah", 
        "admin": "Panjshir", 
        "country": "Afghanistan", 
        "population_proper": "", 
        "iso2": "AF", 
        "capital": "minor", 
        "lat": "35.232514", 
        "lng": "69.377187", 
        "population": ""
    }, 
    {
        "city": "Pasaband", 
        "admin": "Gh\u014dr", 
        "country": "Afghanistan", 
        "population_proper": "", 
        "iso2": "AF", 
        "capital": "minor", 
        "lat": "33.68956", 
        "lng": "64.853103", 
        "population": ""
    }, 
    {
        "city": "S\u014dzmah Qal\u2018ah", 
        "admin": "Sar-e Pul", 
        "country": "Afghanistan", 
        "population_proper": "", 
        "iso2": "AF", 
        "capital": "minor", 
        "lat": "36.099165", 
        "lng": "66.208226", 
        "population": ""
    }, 
    {
        "city": "T\u012btan", 
        "admin": "Gh\u014dr", 
        "country": "Afghanistan", 
        "population_proper": "", 
        "iso2": "AF", 
        "capital": "minor", 
        "lat": "33.690323", 
        "lng": "63.863606", 
        "population": ""
    }, 
    {
        "city": "Sp\u012bn B\u014dldak", 
        "admin": "Kandahar", 
        "country": "Afghanistan", 
        "population_proper": "", 
        "iso2": "AF", 
        "capital": "minor", 
        "lat": "31.00575", 
        "lng": "66.400013", 
        "population": ""
    }, 
    {
        "city": "Chahar Bagh", 
        "admin": "Faryab", 
        "country": "Afghanistan", 
        "population_proper": "", 
        "iso2": "AF", 
        "capital": "minor", 
        "lat": "37.001082", 
        "lng": "65.223922", 
        "population": ""
    }, 
    {
        "city": "Kiraman", 
        "admin": "Panjshir", 
        "country": "Afghanistan", 
        "population_proper": "", 
        "iso2": "AF", 
        "capital": "minor", 
        "lat": "35.297298", 
        "lng": "69.681252", 
        "population": ""
    }, 
    {
        "city": "Istalif", 
        "admin": "Kabul", 
        "country": "Afghanistan", 
        "population_proper": "", 
        "iso2": "AF", 
        "capital": "minor", 
        "lat": "34.832676", 
        "lng": "69.077557", 
        "population": ""
    }, 
    {
        "city": "Jowand", 
        "admin": "Badgh\u012bs", 
        "country": "Afghanistan", 
        "population_proper": "", 
        "iso2": "AF", 
        "capital": "minor", 
        "lat": "35.063611", 
        "lng": "64.149167", 
        "population": ""
    }, 
    {
        "city": "Dahan-e Jarf", 
        "admin": "Parwan", 
        "country": "Afghanistan", 
        "population_proper": "", 
        "iso2": "AF", 
        "capital": "minor", 
        "lat": "34.928907", 
        "lng": "68.462727", 
        "population": ""
    }, 
    {
        "city": "Amanz\u012b", 
        "admin": "Kandahar", 
        "country": "Afghanistan", 
        "population_proper": "", 
        "iso2": "AF", 
        "capital": "minor", 
        "lat": "30.211442", 
        "lng": "66.047647", 
        "population": ""
    }, 
    {
        "city": "\u1e28uk\u016bmat\u012b Azrah", 
        "admin": "L\u014dgar", 
        "country": "Afghanistan", 
        "population_proper": "", 
        "iso2": "AF", 
        "capital": "minor", 
        "lat": "34.173553", 
        "lng": "69.645728", 
        "population": ""
    }, 
    {
        "city": "Nadir Shah K\u014d\u1e6f", 
        "admin": "Kh\u014dst", 
        "country": "Afghanistan", 
        "population_proper": "", 
        "iso2": "AF", 
        "capital": "minor", 
        "lat": "33.306572", 
        "lng": "69.693806", 
        "population": ""
    }, 
    {
        "city": "Imam \u015ea\u1e29ib", 
        "admin": "Kunduz", 
        "country": "Afghanistan", 
        "population_proper": "", 
        "iso2": "AF", 
        "capital": "minor", 
        "lat": "37.188974", 
        "lng": "68.936438", 
        "population": ""
    }, 
    {
        "city": "Zargaran", 
        "admin": "Kabul", 
        "country": "Afghanistan", 
        "population_proper": "", 
        "iso2": "AF", 
        "capital": "minor", 
        "lat": "34.787639", 
        "lng": "69.05878", 
        "population": ""
    }, 
    {
        "city": "\u1e0ean\u1e0far", 
        "admin": "Parwan", 
        "country": "Afghanistan", 
        "population_proper": "", 
        "iso2": "AF", 
        "capital": "minor", 
        "lat": "34.790947", 
        "lng": "69.475037", 
        "population": ""
    }, 
    {
        "city": "\u014cb\u00eah", 
        "admin": "Herat", 
        "country": "Afghanistan", 
        "population_proper": "", 
        "iso2": "AF", 
        "capital": "minor", 
        "lat": "34.369722", 
        "lng": "63.176389", 
        "population": ""
    }, 
    {
        "city": "Chinar", 
        "admin": "Kandahar", 
        "country": "Afghanistan", 
        "population_proper": "", 
        "iso2": "AF", 
        "capital": "minor", 
        "lat": "32.015826", 
        "lng": "65.107207", 
        "population": ""
    }, 
    {
        "city": "Sar Ka\u1e49\u012b", 
        "admin": "Kuna\u1e5f", 
        "country": "Afghanistan", 
        "population_proper": "", 
        "iso2": "AF", 
        "capital": "minor", 
        "lat": "34.790227", 
        "lng": "71.10962", 
        "population": ""
    }, 
    {
        "city": "Khinj", 
        "admin": "Panjshir", 
        "country": "Afghanistan", 
        "population_proper": "", 
        "iso2": "AF", 
        "capital": "minor", 
        "lat": "35.428982", 
        "lng": "69.734823", 
        "population": ""
    }, 
    {
        "city": "Muq\u00ear", 
        "admin": "Ghazn\u012b", 
        "country": "Afghanistan", 
        "population_proper": "", 
        "iso2": "AF", 
        "capital": "minor", 
        "lat": "32.820087", 
        "lng": "67.769341", 
        "population": ""
    }, 
    {
        "city": "Z\u014dr K\u014d\u1e6f", 
        "admin": "Kh\u014dst", 
        "country": "Afghanistan", 
        "population_proper": "", 
        "iso2": "AF", 
        "capital": "minor", 
        "lat": "33.541486", 
        "lng": "69.734456", 
        "population": ""
    }, 
    {
        "city": "Qaram Q\u014dl", 
        "admin": "Faryab", 
        "country": "Afghanistan", 
        "population_proper": "", 
        "iso2": "AF", 
        "capital": "minor", 
        "lat": "36.830063", 
        "lng": "65.042992", 
        "population": ""
    }, 
    {
        "city": "M\u016bs\u00e1 Qal\u2018ah", 
        "admin": "Helmand", 
        "country": "Afghanistan", 
        "population_proper": "", 
        "iso2": "AF", 
        "capital": "minor", 
        "lat": "32.445653", 
        "lng": "64.744862", 
        "population": ""
    }, 
    {
        "city": "Sang-e Mashah", 
        "admin": "Ghazn\u012b", 
        "country": "Afghanistan", 
        "population_proper": "", 
        "iso2": "AF", 
        "capital": "minor", 
        "lat": "33.139601", 
        "lng": "67.440455", 
        "population": ""
    }, 
    {
        "city": "Khanaqah", 
        "admin": "Jowzjan", 
        "country": "Afghanistan", 
        "population_proper": "", 
        "iso2": "AF", 
        "capital": "minor", 
        "lat": "36.862785", 
        "lng": "66.166557", 
        "population": ""
    }, 
    {
        "city": "\u014ckak", 
        "admin": "Ghazn\u012b", 
        "country": "Afghanistan", 
        "population_proper": "", 
        "iso2": "AF", 
        "capital": "minor", 
        "lat": "33.897935", 
        "lng": "67.956519", 
        "population": ""
    }, 
    {
        "city": "Darayim", 
        "admin": "Badakhshan", 
        "country": "Afghanistan", 
        "population_proper": "", 
        "iso2": "AF", 
        "capital": "minor", 
        "lat": "36.866667", 
        "lng": "70.383333", 
        "population": ""
    }, 
    {
        "city": "N\u012bk\u00eah", 
        "admin": "Pakt\u012bka", 
        "country": "Afghanistan", 
        "population_proper": "", 
        "iso2": "AF", 
        "capital": "minor", 
        "lat": "33.189341", 
        "lng": "69.271786", 
        "population": ""
    }, 
    {
        "city": "Gereshk", 
        "admin": "Helmand", 
        "country": "Afghanistan", 
        "population_proper": "", 
        "iso2": "AF", 
        "capital": "minor", 
        "lat": "31.820894", 
        "lng": "64.570048", 
        "population": ""
    }, 
    {
        "city": "Farkhar", 
        "admin": "Takhar", 
        "country": "Afghanistan", 
        "population_proper": "", 
        "iso2": "AF", 
        "capital": "minor", 
        "lat": "36.572884", 
        "lng": "69.857834", 
        "population": ""
    }, 
    {
        "city": "Shahr-e \u015eafa", 
        "admin": "Zabul", 
        "country": "Afghanistan", 
        "population_proper": "", 
        "iso2": "AF", 
        "capital": "minor", 
        "lat": "31.803466", 
        "lng": "66.323756", 
        "population": ""
    }, 
    {
        "city": "Qal\u2018ah-ye Shah\u012b", 
        "admin": "Nangarhar", 
        "country": "Afghanistan", 
        "population_proper": "", 
        "iso2": "AF", 
        "capital": "minor", 
        "lat": "34.649212", 
        "lng": "70.5914", 
        "population": ""
    }, 
    {
        "city": "Rustaq", 
        "admin": "Takhar", 
        "country": "Afghanistan", 
        "population_proper": "", 
        "iso2": "AF", 
        "capital": "minor", 
        "lat": "37.126035", 
        "lng": "69.83045", 
        "population": ""
    }, 
    {
        "city": "Tukzar", 
        "admin": "Sar-e Pul", 
        "country": "Afghanistan", 
        "population_proper": "", 
        "iso2": "AF", 
        "capital": "minor", 
        "lat": "35.948308", 
        "lng": "66.42132", 
        "population": ""
    }, 
    {
        "city": "Khudaydad Kh\u0113l", 
        "admin": "Bamyan", 
        "country": "Afghanistan", 
        "population_proper": "", 
        "iso2": "AF", 
        "capital": "minor", 
        "lat": "35.178346", 
        "lng": "67.687582", 
        "population": ""
    }, 
    {
        "city": "Qarghah\u2019\u012b", 
        "admin": "Laghman", 
        "country": "Afghanistan", 
        "population_proper": "", 
        "iso2": "AF", 
        "capital": "minor", 
        "lat": "34.554024", 
        "lng": "70.24292", 
        "population": ""
    }, 
    {
        "city": "\u1e28uk\u016bmat-e Nad \u2018Al\u012b", 
        "admin": "Helmand", 
        "country": "Afghanistan", 
        "population_proper": "", 
        "iso2": "AF", 
        "capital": "minor", 
        "lat": "31.642864", 
        "lng": "64.23982", 
        "population": ""
    }, 
    {
        "city": "Dwah Man\u1e0fay", 
        "admin": "Kh\u014dst", 
        "country": "Afghanistan", 
        "population_proper": "", 
        "iso2": "AF", 
        "capital": "minor", 
        "lat": "33.281588", 
        "lng": "69.585312", 
        "population": ""
    }, 
    {
        "city": "Khan Nesh\u012bn", 
        "admin": "Helmand", 
        "country": "Afghanistan", 
        "population_proper": "", 
        "iso2": "AF", 
        "capital": "minor", 
        "lat": "30.548803", 
        "lng": "63.788801", 
        "population": ""
    }, 
    {
        "city": "Wu\u1e6fahp\u016br", 
        "admin": "Kuna\u1e5f", 
        "country": "Afghanistan", 
        "population_proper": "", 
        "iso2": "AF", 
        "capital": "minor", 
        "lat": "34.919136", 
        "lng": "71.098633", 
        "population": ""
    }, 
    {
        "city": "Ma\u012bdan Kh\u016blah", 
        "admin": "Paktiya", 
        "country": "Afghanistan", 
        "population_proper": "", 
        "iso2": "AF", 
        "capital": "minor", 
        "lat": "33.649155", 
        "lng": "69.781204", 
        "population": ""
    }, 
    {
        "city": "Bagram\u012b", 
        "admin": "Kabul", 
        "country": "Afghanistan", 
        "population_proper": "", 
        "iso2": "AF", 
        "capital": "minor", 
        "lat": "34.493761", 
        "lng": "69.274274", 
        "population": ""
    }, 
    {
        "city": "Pul-e \u1e28i\u015far", 
        "admin": "Baghlan", 
        "country": "Afghanistan", 
        "population_proper": "", 
        "iso2": "AF", 
        "capital": "minor", 
        "lat": "35.617945", 
        "lng": "69.47134", 
        "population": ""
    }, 
    {
        "city": "G\u014dmal K\u00ealay", 
        "admin": "Pakt\u012bka", 
        "country": "Afghanistan", 
        "population_proper": "", 
        "iso2": "AF", 
        "capital": "minor", 
        "lat": "32.509888", 
        "lng": "68.855982", 
        "population": ""
    }, 
    {
        "city": "Mand\u014dl", 
        "admin": "N\u016bristan", 
        "country": "Afghanistan", 
        "population_proper": "", 
        "iso2": "AF", 
        "capital": "minor", 
        "lat": "35.284031", 
        "lng": "70.170174", 
        "population": ""
    }, 
    {
        "city": "Zaranj", 
        "admin": "N\u012bmr\u014dz", 
        "country": "Afghanistan", 
        "population_proper": "", 
        "iso2": "AF", 
        "capital": "admin", 
        "lat": "30.966667", 
        "lng": "61.883333", 
        "population": ""
    }, 
    {
        "city": "Pasnay", 
        "admin": "Sar-e Pul", 
        "country": "Afghanistan", 
        "population_proper": "", 
        "iso2": "AF", 
        "capital": "minor", 
        "lat": "35.766644", 
        "lng": "65.764862", 
        "population": ""
    }, 
    {
        "city": "Kh\u016bgya\u1e49\u012b", 
        "admin": "Kandahar", 
        "country": "Afghanistan", 
        "population_proper": "", 
        "iso2": "AF", 
        "capital": "minor", 
        "lat": "31.562667", 
        "lng": "66.581397", 
        "population": ""
    }, 
    {
        "city": "Baharak", 
        "admin": "Badakhshan", 
        "country": "Afghanistan", 
        "population_proper": "", 
        "iso2": "AF", 
        "capital": "minor", 
        "lat": "37.002538", 
        "lng": "70.906643", 
        "population": ""
    }
]